City_ID,City,Country,Date,Lat,Lng,Max Temp,Humidity,Cloudiness,Wind Speed,Current Description,Rain inches (last 3 hrs),Snow inches (last 3 hrs)
0,Goderich,CA,2020-12-09 08:54:33,43.75,-81.72,35.6,80,100,17.22,overcast clouds,0,0
1,Torbay,CA,2020-12-09 08:54:34,47.67,-52.73,42.01,93,90,13.87,moderate rain,0,0
2,Nanortalik,GL,2020-12-09 08:54:34,60.14,-45.24,29.53,85,0,6.06,clear sky,0,0
3,Mataura,NZ,2020-12-09 08:54:35,-46.19,168.86,59.0,76,72,1.01,broken clouds,0,0
4,Clonakilty,IE,2020-12-09 08:54:35,51.62,-8.87,42.8,93,75,6.93,broken clouds,0,0
5,Mahebourg,MU,2020-12-09 08:54:35,-20.41,57.7,80.6,65,75,16.11,shower rain,0,0
6,Mercedes,AR,2020-12-09 08:54:36,-34.65,-59.43,63.0,90,11,1.01,few clouds,0,0
7,Dingle,PH,2020-12-09 08:54:36,11.0,122.67,79.79,87,96,5.75,overcast clouds,0,0
8,Qaanaaq,GL,2020-12-09 08:54:36,77.48,-69.36,0.0,84,100,3.47,overcast clouds,0,0
9,Dickinson,US,2020-12-09 08:54:37,29.46,-95.05,53.01,93,1,6.69,clear sky,0,0
10,Usinsk,RU,2020-12-09 08:53:28,65.99,57.53,25.84,98,98,11.39,overcast clouds,0,0
11,Hobart,AU,2020-12-09 08:50:07,-42.88,147.33,64.4,42,0,16.11,clear sky,0,0
12,Fortuna,US,2020-12-09 08:54:37,40.6,-124.16,48.99,96,98,3.51,overcast clouds,0,0
13,New Norfolk,AU,2020-12-09 08:54:37,-42.78,147.06,62.6,39,40,17.22,scattered clouds,0,0
14,Atuona,PF,2020-12-09 08:54:38,-9.8,-139.03,77.61,79,4,18.54,light rain,0,0
15,Avarua,CK,2020-12-09 08:54:38,-21.21,-159.78,78.8,83,1,11.41,clear sky,0,0
16,Cidreira,BR,2020-12-09 08:54:38,-30.18,-50.21,66.16,94,20,5.23,few clouds,0,0
17,Iqaluit,CA,2020-12-09 08:54:38,63.75,-68.51,23.0,73,75,10.29,broken clouds,0,0
18,Lompoc,US,2020-12-09 08:54:38,34.64,-120.46,53.6,40,90,9.17,overcast clouds,0,0
19,Hilo,US,2020-12-09 08:51:42,19.73,-155.09,73.4,78,90,5.82,overcast clouds,0,0
20,Zelenoborskiy,RU,2020-12-09 08:54:39,66.84,32.36,25.0,25,31,10.76,scattered clouds,0,0
21,Hithadhoo,MV,2020-12-09 08:54:39,-0.6,73.08,81.99,67,0,7.65,clear sky,0,0
22,Busselton,AU,2020-12-09 08:54:40,-33.65,115.33,71.01,64,0,5.01,clear sky,0,0
23,Albany,US,2020-12-09 08:51:45,42.6,-73.97,25.0,92,90,2.89,overcast clouds,0,0
24,Port Alfred,ZA,2020-12-09 08:54:40,-33.59,26.89,72.73,72,77,15.77,broken clouds,0,0
25,Georgetown,MY,2020-12-09 08:52:10,5.41,100.34,91.4,55,20,9.17,few clouds,0,0
26,Myrtle Beach,US,2020-12-09 08:51:02,33.69,-78.89,35.6,74,1,3.36,clear sky,0,0
27,Castro,BR,2020-12-09 08:54:41,-24.79,-50.01,59.32,96,4,2.75,clear sky,0,0
28,Vaini,TO,2020-12-09 08:54:41,-21.2,-175.2,78.8,88,40,11.41,scattered clouds,0,0
29,Saint George,US,2020-12-09 08:54:41,37.1,-113.58,39.2,25,1,4.0,clear sky,0,0
30,Kaberamaido,UG,2020-12-09 08:54:41,1.74,33.16,84.33,39,79,7.58,broken clouds,0,0
31,Oussouye,SN,2020-12-09 08:54:42,12.48,-16.55,71.6,68,0,9.17,clear sky,0,0
32,Maningrida,AU,2020-12-09 08:54:42,-12.07,134.27,85.41,63,64,9.42,broken clouds,0,0
33,Gushikawa,JP,2020-12-09 08:54:42,26.35,127.87,69.8,94,90,10.29,overcast clouds,0,0
34,Kokoda,PG,2020-12-09 08:54:42,-8.88,147.74,76.78,74,100,0.2,light rain,0,0
35,Port Lincoln,AU,2020-12-09 08:54:42,-34.73,135.87,61.45,74,0,17.81,clear sky,0,0
36,Verkhnetulomskiy,RU,2020-12-09 08:54:43,68.61,31.8,28.4,86,75,6.71,broken clouds,0,0
37,Bubaque,GW,2020-12-09 08:54:43,11.28,-15.83,79.9,51,90,19.22,overcast clouds,0,0
38,Ambilobe,MG,2020-12-09 08:52:06,-13.2,49.05,90.14,50,47,6.08,light rain,0,0
39,Sao Filipe,CV,2020-12-09 08:54:43,14.9,-24.5,74.25,74,89,12.08,overcast clouds,0,0
40,Westport,US,2020-12-09 08:50:07,41.14,-73.36,28.99,79,1,3.36,clear sky,0,0
41,Rikitea,PF,2020-12-09 08:54:44,-23.12,-134.97,76.68,80,0,15.28,clear sky,0,0
42,Kapaa,US,2020-12-09 08:49:57,22.08,-159.32,73.4,88,1,5.82,clear sky,0,0
43,Viedma,AR,2020-12-09 08:54:44,-40.81,-63.0,62.01,50,0,11.83,clear sky,0,0
44,Katsuura,JP,2020-12-09 08:54:44,35.13,140.3,51.8,71,75,10.29,broken clouds,0,0
45,Ushuaia,AR,2020-12-09 08:54:44,-54.8,-68.3,46.4,87,90,5.82,shower rain,0,0
46,Bluff,NZ,2020-12-09 08:54:44,-46.6,168.33,59.0,76,99,1.01,overcast clouds,0,0
47,Alofi,NU,2020-12-09 08:50:31,-19.06,-169.92,78.8,83,1,9.17,clear sky,0,0
48,Dori,BF,2020-12-09 08:54:45,14.04,-0.03,85.68,17,1,14.16,clear sky,0,0
49,Jamestown,US,2020-12-09 08:53:43,42.1,-79.24,32.0,79,90,20.8,overcast clouds,0,0
50,Pudozh,RU,2020-12-09 08:54:46,61.81,36.53,24.04,94,3,6.31,clear sky,0,0
51,Touros,BR,2020-12-09 08:54:46,-5.2,-35.46,71.6,100,90,4.7,mist,0,0
52,Souillac,MU,2020-12-09 08:54:46,-20.52,57.52,80.6,65,75,16.11,shower rain,0,0
53,Morwell,AU,2020-12-09 08:54:46,-38.23,146.4,63.0,76,17,8.01,few clouds,0,0
54,Norman Wells,CA,2020-12-09 08:54:47,65.28,-126.83,-7.6,76,75,4.7,broken clouds,0,0
55,Ilulissat,GL,2020-12-09 08:54:47,69.22,-51.1,19.4,48,100,17.22,overcast clouds,0,0
56,Diu,IN,2020-12-09 08:54:47,20.71,70.98,84.52,41,100,12.1,overcast clouds,0,0
57,Sohag,EG,2020-12-09 08:54:47,26.56,31.69,66.2,52,0,6.93,clear sky,0,0
58,Palmer,US,2020-12-09 08:54:47,42.16,-72.33,21.0,92,1,3.36,clear sky,0,0
59,Tessalit,ML,2020-12-09 08:54:48,20.2,1.01,71.49,20,0,10.58,clear sky,0,0
60,Hermanus,ZA,2020-12-09 08:54:48,-34.42,19.23,66.99,91,31,4.0,scattered clouds,0,0
61,Manubul,PH,2020-12-09 08:54:48,5.47,120.8,84.81,76,46,12.75,scattered clouds,0,0
62,Punta Arenas,CL,2020-12-09 08:54:48,-53.15,-70.92,48.2,76,60,18.34,broken clouds,0,0
63,Bambous Virieux,MU,2020-12-09 08:54:48,-20.34,57.76,81.0,65,75,16.11,shower rain,0,0
64,Pangnirtung,CA,2020-12-09 08:54:49,66.15,-65.71,22.42,92,100,3.85,overcast clouds,0,0
65,Pevek,RU,2020-12-09 08:54:49,69.7,170.31,5.16,95,100,6.87,light snow,0,0
66,Starodubskoye,RU,2020-12-09 08:54:49,44.56,44.02,36.25,80,98,14.97,overcast clouds,0,0
67,La Rioja,ES,2020-12-09 08:54:49,42.25,-2.5,41.0,86,75,16.11,broken clouds,0,0
68,Faanui,PF,2020-12-09 08:54:50,-16.48,-151.75,77.31,83,100,22.32,light rain,0,0
69,Moron,AR,2020-12-09 08:54:50,-34.65,-58.62,71.01,91,0,7.14,clear sky,0,0
70,Kavieng,PG,2020-12-09 08:54:50,-2.57,150.8,83.91,66,60,0.65,broken clouds,0,0
71,Bira,RU,2020-12-09 08:54:50,49.0,132.47,10.45,87,16,1.79,few clouds,0,0
72,Saskylakh,RU,2020-12-09 08:54:50,71.92,114.08,-16.94,88,100,5.19,overcast clouds,0,0
73,Shihezi,CN,2020-12-09 08:54:51,44.3,86.03,21.49,93,0,0.89,clear sky,0,0
74,Ostrovnoy,RU,2020-12-09 08:54:51,68.05,39.51,25.63,96,100,21.74,overcast clouds,0,0
75,Arraial Do Cabo,BR,2020-12-09 08:53:50,-22.97,-42.03,71.6,85,75,4.7,light rain,0,0
76,Lincoln,US,2020-12-09 08:54:51,40.8,-96.67,46.0,59,1,3.36,clear sky,0,0
77,Puerto Ayora,EC,2020-12-09 08:54:52,-0.74,-90.35,72.0,94,35,8.01,scattered clouds,0,0
78,Port Hedland,AU,2020-12-09 08:54:52,-20.32,118.57,93.2,44,90,8.05,overcast clouds,0,0
79,Amahai,ID,2020-12-09 08:52:02,-3.33,128.92,84.0,73,90,2.53,overcast clouds,0,0
80,Lebu,CL,2020-12-09 08:54:52,-37.62,-73.65,50.61,85,1,15.19,clear sky,0,0
81,Dauriya,RU,2020-12-09 08:54:52,49.93,116.87,4.05,90,56,5.79,broken clouds,0,0
82,Bredasdorp,ZA,2020-12-09 08:54:53,-34.53,20.04,68.0,82,90,11.41,light rain,0,0
83,Asau,RO,2020-12-09 08:54:53,46.43,26.4,28.99,26,100,3.15,overcast clouds,0,0
84,Rocha,UY,2020-12-09 08:54:53,-34.48,-54.33,57.33,96,22,4.9,few clouds,0,0
85,Lagoa,PT,2020-12-09 08:54:53,39.05,-27.98,62.6,86,100,22.03,overcast clouds,0,0
86,San Mateo Del Mar,MX,2020-12-09 08:54:53,16.2,-95.0,72.05,66,0,35.79,clear sky,0,0
87,Sibut,CF,2020-12-09 08:54:54,5.72,19.07,95.27,21,100,2.98,overcast clouds,0,0
88,High Level,CA,2020-12-09 08:54:54,58.52,-117.14,12.2,92,1,2.24,clear sky,0,0
89,Hunenberg,CH,2020-12-09 08:54:54,47.18,8.43,35.01,100,90,1.39,mist,0,0
90,Tilichiki,RU,2020-12-09 08:54:54,60.47,166.1,3.63,92,99,10.76,overcast clouds,0,0
91,Todos Santos,MX,2020-12-09 08:54:55,23.45,-110.22,68.0,66,36,3.49,scattered clouds,0,0
92,Tura,IN,2020-12-09 08:54:55,25.52,90.22,73.26,62,58,1.83,broken clouds,0,0
93,Mandurah,AU,2020-12-09 08:54:55,-32.55,115.7,80.01,62,0,3.0,clear sky,0,0
94,Ambovombe,MG,2020-12-09 08:54:55,-25.17,46.08,79.5,50,5,18.88,clear sky,0,0
95,Berlevag,NO,2020-12-09 08:54:55,70.86,29.09,33.8,80,75,25.28,broken clouds,0,0
96,Lorengau,PG,2020-12-09 08:54:56,-2.02,147.27,83.66,67,75,0.85,broken clouds,0,0
97,Chingirlau,KZ,2020-12-09 08:54:56,51.09,54.08,13.8,93,0,4.65,clear sky,0,0
98,Victoria,HK,2020-12-09 08:52:20,22.29,114.16,69.01,71,92,4.0,overcast clouds,0,0
99,Thompson,CA,2020-12-09 08:50:02,55.74,-97.86,32.0,98,90,6.93,overcast clouds,0,0
100,Utmanzai,PK,2020-12-09 08:52:02,34.19,71.76,66.2,52,20,4.7,haze,0,0
101,Sebinkarahisar,TR,2020-12-09 08:54:57,40.29,38.42,39.65,79,85,1.36,overcast clouds,0,0
102,Mareeba,AU,2020-12-09 08:54:57,-17.0,145.43,84.2,70,40,9.17,light rain,0,0
103,Hambantota,LK,2020-12-09 08:54:57,6.12,81.12,87.8,66,40,8.05,scattered clouds,0,0
104,Whitefish,US,2020-12-09 08:54:16,48.41,-114.34,35.01,92,40,4.7,mist,0,0
105,Xiaoyi,CN,2020-12-09 08:54:57,34.62,109.7,44.15,61,76,5.7,broken clouds,0,0
106,Zhaoyuan,CN,2020-12-09 08:54:58,37.36,120.4,37.51,71,100,5.3,light rain,0,0
107,Naze,JP,2020-12-09 08:52:08,28.37,129.48,66.2,88,75,12.75,broken clouds,0,0
108,Qui Nhon,VN,2020-12-09 08:54:58,13.77,109.23,73.51,83,100,15.86,overcast clouds,0,0
109,Mende,FR,2020-12-09 08:54:58,44.67,3.5,32.0,98,90,11.41,overcast clouds,0,0
110,Crotone,IT,2020-12-09 08:54:58,39.09,17.12,57.2,76,20,19.46,few clouds,0,0
111,New Richmond,US,2020-12-09 08:54:59,45.12,-92.54,24.8,92,1,5.41,clear sky,0,0
112,Cape Town,ZA,2020-12-09 08:54:59,-33.93,18.42,72.0,60,75,9.17,broken clouds,0,0
113,Mayumba,GA,2020-12-09 08:54:59,-3.43,10.66,79.86,78,94,5.19,overcast clouds,0,0
114,Marostica,IT,2020-12-09 08:54:59,45.75,11.66,46.0,97,100,9.53,light rain,0,0
115,Soyo,AO,2020-12-09 08:55:00,-6.13,12.37,79.57,80,100,4.29,overcast clouds,0,0
116,Cherskiy,RU,2020-12-09 08:55:00,68.75,161.3,-18.96,88,97,5.12,overcast clouds,0,0
117,Lasa,IT,2020-12-09 08:55:00,46.62,10.7,43.0,86,90,8.05,fog,0,0
118,Dharchula,IN,2020-12-09 08:55:00,29.85,80.53,70.59,21,90,6.15,overcast clouds,0,0
119,Khorol,UA,2020-12-09 08:55:00,49.78,33.28,26.01,90,76,14.83,broken clouds,0,0
120,Asyut,EG,2020-12-09 08:55:01,27.18,31.18,64.4,63,0,9.17,clear sky,0,0
121,Hualmay,PE,2020-12-09 08:55:01,-11.1,-77.61,65.61,86,60,7.29,broken clouds,0,0
122,Port Elizabeth,ZA,2020-12-09 08:55:01,-33.92,25.57,73.4,73,20,19.46,few clouds,0,0
123,Palmeira,BR,2020-12-09 08:55:01,-25.43,-50.01,59.56,99,9,2.1,clear sky,0,0
124,Salta,AR,2020-12-09 08:52:44,-24.79,-65.41,73.4,60,75,20.8,thunderstorm,0,0
125,Hasaki,JP,2020-12-09 08:55:02,35.73,140.83,50.0,66,75,4.7,broken clouds,0,0
126,Englehart,CA,2020-12-09 08:55:02,47.82,-79.87,30.2,92,90,9.17,light snow,0,0
127,Khatanga,RU,2020-12-09 08:55:02,71.97,102.5,-29.38,86,99,1.28,overcast clouds,0,0
128,East London,ZA,2020-12-09 08:55:03,-33.02,27.91,73.38,72,49,14.9,scattered clouds,0,0
129,Longyearbyen,SJ,2020-12-09 08:55:03,78.22,15.64,28.4,74,40,20.8,light shower snow,0,0
130,Saldanha,ZA,2020-12-09 08:55:03,-33.01,17.94,71.6,77,40,11.41,scattered clouds,0,0
131,San Luis,AR,2020-12-09 08:51:16,-33.3,-66.34,71.28,51,1,6.69,clear sky,0,0
132,Chokurdakh,RU,2020-12-09 08:55:04,70.63,147.92,-28.16,85,89,7.38,overcast clouds,0,0
133,Codrington,AU,2020-12-09 08:55:04,-38.27,141.97,58.33,78,38,10.13,scattered clouds,0,0
134,Akdepe,TM,2020-12-09 08:55:05,42.06,59.38,24.8,58,0,6.93,clear sky,0,0
135,Ponta Do Sol,PT,2020-12-09 08:55:05,32.67,-17.1,62.6,77,40,11.41,light intensity shower rain,0,0
136,Catuday,PH,2020-12-09 08:55:05,16.29,119.81,81.03,80,0,8.16,clear sky,0,0
137,Katobu,ID,2020-12-09 08:55:05,-4.94,122.53,84.81,75,100,3.38,light rain,0,0
138,Namatanai,PG,2020-12-09 08:55:06,-3.67,152.43,81.66,74,85,1.57,overcast clouds,0,0
139,Muravlenko,RU,2020-12-09 08:55:06,63.79,74.52,-2.67,94,80,6.26,broken clouds,0,0
140,Tasiilaq,GL,2020-12-09 08:55:06,65.61,-37.64,15.8,56,0,2.24,clear sky,0,0
141,Mundo Nuevo,MX,2020-12-09 08:55:07,18.7,-95.5,69.03,67,78,3.69,broken clouds,0,0
142,Laguna,US,2020-12-09 08:55:07,38.42,-121.42,46.0,70,1,2.55,clear sky,0,0
143,Palauig,PH,2020-12-09 08:55:07,15.44,119.9,82.98,77,92,5.64,overcast clouds,0,0
144,Merauke,ID,2020-12-09 08:55:07,-8.47,140.33,82.4,78,87,9.04,overcast clouds,0,0
145,Pultusk,PL,2020-12-09 08:55:08,52.7,21.08,30.0,86,65,14.81,broken clouds,0,0
146,Billings,US,2020-12-09 08:55:01,45.78,-108.5,50.0,21,75,14.99,broken clouds,0,0
147,Poronaysk,RU,2020-12-09 08:55:08,49.22,143.12,21.56,87,40,7.11,scattered clouds,0,0
148,Dandong,CN,2020-12-09 08:55:08,40.13,124.39,32.11,97,100,5.06,overcast clouds,0,0
149,Isla Vista,US,2020-12-09 08:55:09,34.41,-119.86,61.0,49,1,5.23,clear sky,0,0
150,Polis,CY,2020-12-09 08:55:09,35.04,32.43,66.2,68,40,5.82,scattered clouds,0,0
151,Tuatapere,NZ,2020-12-09 08:55:09,-46.13,167.68,59.0,76,97,1.01,overcast clouds,0,0
152,Dunedin,NZ,2020-12-09 08:55:10,-45.87,170.5,60.01,69,88,0.6,overcast clouds,0,0
153,Itarema,BR,2020-12-09 08:55:10,-2.92,-39.92,78.13,80,100,10.8,overcast clouds,0,0
154,Never,FR,2020-12-09 08:55:10,46.99,3.16,37.0,100,90,1.12,mist,0,0
155,Mayo,US,2020-12-09 08:55:10,38.89,-76.51,32.0,68,1,3.36,clear sky,0,0
156,Hovd,MN,2020-12-09 08:55:10,48.01,91.64,10.78,78,100,1.14,light snow,0,0
157,Kodiak,US,2020-12-09 08:55:11,57.79,-152.41,32.0,82,75,3.36,light snow,0,0
158,Khuzdar,PK,2020-12-09 08:55:11,27.74,66.64,63.36,45,29,4.97,light rain,0,0
159,Sambava,MG,2020-12-09 08:55:11,-14.27,50.17,80.44,78,38,10.83,moderate rain,0,0
160,Eenhana,NA,2020-12-09 08:55:11,-17.47,16.33,91.4,16,100,9.55,overcast clouds,0,0
161,Manicore,BR,2020-12-09 08:55:11,-5.81,-61.3,72.45,95,78,1.43,broken clouds,0,0
162,Butaritari,KI,2020-12-09 08:55:12,3.07,172.79,82.26,75,38,4.36,scattered clouds,0,0
163,Bud,US,2020-12-09 08:55:12,39.45,-86.18,35.01,91,1,3.36,clear sky,0,0
164,Cockburn Town,TC,2020-12-09 08:55:12,21.46,-71.14,76.96,81,91,15.08,overcast clouds,0,0
165,Chapais,CA,2020-12-09 08:55:12,49.78,-74.85,5.0,84,90,3.36,overcast clouds,0,0
166,Baculin,PH,2020-12-09 08:55:12,7.45,126.58,81.19,76,83,2.59,broken clouds,0,0
167,Bonavista,CA,2020-12-09 08:55:13,48.65,-53.11,37.0,100,100,11.41,light rain,0,0
168,Rahuri,IN,2020-12-09 08:55:01,19.38,74.65,86.38,28,13,5.14,few clouds,0,0
169,Dikson,RU,2020-12-09 08:55:13,73.51,80.55,-4.05,90,100,11.14,overcast clouds,0,0
170,Severo-Kurilsk,RU,2020-12-09 08:55:14,50.68,156.12,25.57,94,25,18.68,snow,0,0
171,Mogok,MM,2020-12-09 08:55:14,22.92,96.5,67.35,64,93,2.62,overcast clouds,0,0
172,Upernavik,GL,2020-12-09 08:55:14,72.79,-56.15,23.85,97,100,10.38,light snow,0,0
173,Tuktoyaktuk,CA,2020-12-09 08:55:14,69.45,-133.04,0.1,93,100,10.58,overcast clouds,0,0
174,Lieksa,FI,2020-12-09 08:55:14,63.32,30.02,28.51,91,0,13.58,clear sky,0,0
175,Gornopravdinsk,RU,2020-12-09 08:55:15,60.05,69.9,15.03,97,100,5.44,overcast clouds,0,0
176,Porto Murtinho,BR,2020-12-09 08:55:15,-21.7,-57.88,70.21,51,0,3.67,clear sky,0,0
177,Sabzevar,IR,2020-12-09 08:52:23,36.21,57.68,44.6,65,75,9.17,broken clouds,0,0
178,Ancud,CL,2020-12-09 08:55:15,-41.87,-73.82,46.99,93,75,2.24,broken clouds,0,0
179,Jalu,LY,2020-12-09 08:55:15,29.03,21.55,67.44,25,0,11.41,clear sky,0,0
180,Piranhas,BR,2020-12-09 08:55:16,-16.43,-51.82,70.97,90,95,1.57,overcast clouds,0,0
181,Tete,MZ,2020-12-09 08:55:16,-16.16,33.59,80.6,69,75,9.17,broken clouds,0,0
182,Airai,TL,2020-12-09 08:55:16,-8.93,125.41,69.22,95,90,2.71,light rain,0,0
183,Keetmanshoop,NA,2020-12-09 08:55:16,-26.58,18.13,77.2,18,0,6.78,clear sky,0,0
184,Zhanaozen,KZ,2020-12-09 08:55:16,43.3,52.8,26.76,85,0,12.37,clear sky,0,0
185,Mitu,CO,2020-12-09 08:55:17,1.2,-70.17,70.25,98,92,1.16,overcast clouds,0,0
186,Leningradskiy,RU,2020-12-09 08:55:17,69.38,178.42,0.86,89,0,9.89,clear sky,0,0
187,Ulladulla,AU,2020-12-09 08:55:17,-35.35,150.47,69.8,52,0,12.75,clear sky,0,0
188,Port Blair,IN,2020-12-09 08:51:09,11.67,92.75,81.66,67,1,9.82,clear sky,0,0
189,Aklavik,CA,2020-12-09 08:55:17,68.22,-135.01,3.2,84,100,9.17,overcast clouds,0,0
190,Kluang,MY,2020-12-09 08:55:18,2.03,103.33,87.8,70,20,10.29,few clouds,0,0
191,Vila Velha,BR,2020-12-09 08:50:38,-20.33,-40.29,78.8,74,75,10.29,broken clouds,0,0
192,Waynesville,US,2020-12-09 08:55:18,35.49,-82.99,30.99,33,89,3.83,overcast clouds,0,0
193,Mar Del Plata,AR,2020-12-09 08:52:44,-38.0,-57.56,63.0,93,90,11.41,overcast clouds,0,0
194,Padre Bernardo,BR,2020-12-09 08:55:18,-15.35,-48.5,68.95,94,100,4.23,light rain,0,0
195,Tabuk,PH,2020-12-09 08:55:19,17.42,121.44,77.63,86,28,6.2,scattered clouds,0,0
196,Kahului,US,2020-12-09 08:55:19,20.89,-156.47,73.0,73,20,4.7,few clouds,0,0
197,Walvis Bay,NA,2020-12-09 08:55:19,-22.96,14.51,68.47,60,29,12.95,scattered clouds,0,0
198,Pochutla,MX,2020-12-09 08:55:20,15.74,-96.47,70.09,67,0,2.15,clear sky,0,0
199,Tahoua,NE,2020-12-09 08:55:20,14.89,5.27,80.6,12,0,4.7,clear sky,0,0
200,Tautira,PF,2020-12-09 08:55:20,-17.73,-149.15,77.0,83,75,13.87,light rain,0,0
201,Provideniya,RU,2020-12-09 08:55:20,64.38,-173.3,8.71,83,0,7.29,clear sky,0,0
202,Inskoy,RU,2020-12-09 08:55:20,54.43,86.44,-1.3,90,100,1.25,overcast clouds,0,0
203,Khani,GE,2020-12-09 08:55:21,41.96,42.96,50.0,46,90,18.34,overcast clouds,0,0
204,Muisne,EC,2020-12-09 08:55:21,0.6,-80.03,75.6,88,100,3.18,light rain,0,0
205,Ust-Nera,RU,2020-12-09 08:55:21,64.57,143.2,-33.65,72,64,2.01,broken clouds,0,0
206,Santiago De Cao,PE,2020-12-09 08:55:21,-7.96,-79.24,65.16,90,99,8.01,overcast clouds,0,0
207,Portland,US,2020-12-09 08:52:09,45.52,-122.68,48.0,93,90,1.72,mist,0,0
208,Bethel,US,2020-12-09 08:54:15,41.37,-73.41,24.01,85,1,3.02,clear sky,0,0
209,Karrapur,IN,2020-12-09 08:55:22,23.95,78.85,85.01,20,6,1.1,clear sky,0,0
210,Torrington,US,2020-12-09 08:55:22,41.8,-73.12,23.0,88,59,5.35,broken clouds,0,0
211,Batsfjord,NO,2020-12-09 08:55:22,70.63,29.72,33.8,86,75,25.28,shower rain,0,0
212,Ribeira Grande,PT,2020-12-09 08:55:23,38.52,-28.7,62.6,82,20,13.87,few clouds,0,0
213,Reconquista,AR,2020-12-09 08:55:23,-29.15,-59.65,63.48,77,0,5.19,clear sky,0,0
214,Canazas,PA,2020-12-09 08:55:23,8.32,-81.22,71.1,85,91,4.07,overcast clouds,0,0
215,Port Hawkesbury,CA,2020-12-09 08:55:23,45.62,-61.35,35.01,92,75,12.75,broken clouds,0,0
216,Methoni,GR,2020-12-09 08:55:23,36.82,21.7,64.99,77,75,5.82,light rain,0,0
217,Nikolskoye,RU,2020-12-09 08:55:23,59.7,30.79,25.0,53,0,6.71,clear sky,0,0
218,Leh,IN,2020-12-09 08:55:24,34.17,77.58,26.78,83,99,2.33,light snow,0,0
219,Vigeland,NO,2020-12-09 08:55:24,58.08,7.3,42.01,84,99,7.0,overcast clouds,0,0
220,Deputatskiy,RU,2020-12-09 08:55:24,69.3,139.9,-27.36,85,98,3.6,overcast clouds,0,0
221,Kenora,CA,2020-12-09 08:55:24,49.82,-94.43,28.4,92,20,8.05,few clouds,0,0
222,Sitka,US,2020-12-09 08:55:24,57.05,-135.33,37.4,93,90,5.82,light rain,0,0
223,Tobol,KZ,2020-12-09 08:55:25,52.68,62.58,21.33,97,100,5.48,overcast clouds,0,0
224,Puerto Leguizamo,CO,2020-12-09 08:55:25,-0.19,-74.78,70.02,98,100,0.65,overcast clouds,0,0
225,Daru,PG,2020-12-09 08:55:25,-9.08,143.21,81.01,83,96,7.94,overcast clouds,0,0
226,Yining,CN,2020-12-09 08:55:25,29.04,114.56,51.67,76,100,2.19,overcast clouds,0,0
227,Mbandaka,CD,2020-12-09 08:55:26,0.05,18.26,82.63,68,73,4.47,broken clouds,0,0
228,Nishihara,JP,2020-12-09 08:55:26,26.18,127.76,69.8,100,90,11.41,light intensity shower rain,0,0
229,Khorixas,NA,2020-12-09 08:55:26,-20.37,14.97,81.37,15,0,4.12,clear sky,0,0
230,Druzhba,UA,2020-12-09 08:55:26,52.04,33.95,23.4,92,0,14.83,clear sky,0,0
231,Erenhot,CN,2020-12-09 08:55:26,43.65,111.98,11.62,90,0,12.75,clear sky,0,0
232,Luau,AO,2020-12-09 08:55:27,-10.71,22.22,69.48,96,100,2.59,moderate rain,0,0
233,Mpika,ZM,2020-12-09 08:55:27,-11.83,31.45,77.14,62,26,8.84,scattered clouds,0,0
234,Pacific Grove,US,2020-12-09 08:55:27,36.62,-121.92,50.0,49,1,3.36,clear sky,0,0
235,Imbituba,BR,2020-12-09 08:52:40,-28.24,-48.67,68.0,94,75,1.12,broken clouds,0,0
236,Pueblo Bello,CO,2020-12-09 08:55:27,8.2,-76.53,72.55,95,72,2.44,light rain,0,0
237,Carnarvon,AU,2020-12-09 08:55:28,-24.87,113.63,78.8,74,0,21.92,clear sky,0,0
238,Vanimo,PG,2020-12-09 08:55:28,-2.67,141.3,80.98,76,100,3.36,overcast clouds,0,0
239,Oksfjord,NO,2020-12-09 08:55:28,70.24,22.35,37.4,85,75,9.17,broken clouds,0,0
240,Tumut,AU,2020-12-09 08:55:28,-35.3,148.22,64.15,55,1,0.38,clear sky,0,0
241,Mubi,NG,2020-12-09 08:55:29,10.27,13.26,91.49,13,100,9.62,overcast clouds,0,0
242,Nuevo Progreso,MX,2020-12-09 08:55:29,23.17,-97.95,54.0,68,16,3.89,few clouds,0,0
243,Vila Franca Do Campo,PT,2020-12-09 08:55:29,37.72,-25.43,60.8,82,20,9.17,few clouds,0,0
244,Barrow,US,2020-12-09 08:55:29,71.29,-156.79,-11.2,69,40,10.29,haze,0,0
245,Ahipara,NZ,2020-12-09 08:55:30,-35.17,173.17,66.92,93,99,9.71,light rain,0,0
246,Husavik,IS,2020-12-09 08:55:30,66.04,-17.34,23.0,92,0,2.17,clear sky,0,0
247,Magadan,RU,2020-12-09 08:55:30,59.57,150.8,12.2,94,100,7.85,overcast clouds,0,0
248,Luderitz,NA,2020-12-09 08:55:31,-26.65,15.16,72.63,48,0,14.9,clear sky,0,0
249,Kruisfontein,ZA,2020-12-09 08:55:31,-34.0,24.73,81.0,56,3,5.01,clear sky,0,0
250,Malartic,CA,2020-12-09 08:55:31,48.13,-78.13,24.8,92,90,9.17,light snow,0,0
251,Gao,ML,2020-12-09 08:55:31,16.64,1.64,83.1,18,0,12.3,clear sky,0,0
252,Talcahuano,CL,2020-12-09 08:55:31,-36.72,-73.12,51.8,87,0,4.7,clear sky,0,0
253,Tiksi,RU,2020-12-09 08:55:32,71.69,128.87,-13.22,89,100,9.91,overcast clouds,0,0
254,Terrace,CA,2020-12-09 08:55:32,54.52,-128.6,35.6,100,90,0.94,fog,0,0
255,Kindu,CD,2020-12-09 08:55:32,-2.95,25.95,75.27,87,98,2.84,light rain,0,0
256,Mangrol,IN,2020-12-09 08:55:32,21.12,70.12,86.11,33,32,5.14,scattered clouds,0,0
257,Port Moresby,PG,2020-12-09 08:55:32,-9.44,147.18,80.33,81,100,4.16,overcast clouds,0,0
258,Pilar,BR,2020-12-09 08:53:15,-9.6,-35.96,75.2,94,40,1.12,scattered clouds,0,0
259,Vedasandur,IN,2020-12-09 08:55:33,10.53,77.95,83.32,66,64,5.95,broken clouds,0,0
260,Beloha,MG,2020-12-09 08:55:33,-25.17,45.05,86.7,35,0,13.71,clear sky,0,0
261,Yellowknife,CA,2020-12-09 08:51:02,62.46,-114.35,3.2,84,75,8.05,broken clouds,0,0
262,Dossor,KZ,2020-12-09 08:55:33,47.53,52.98,23.09,82,0,4.09,clear sky,0,0
263,Kamaishi,JP,2020-12-09 08:55:34,39.27,141.88,39.2,64,40,4.7,scattered clouds,0,0
264,Broken Hill,AU,2020-12-09 08:55:34,-31.95,141.43,82.4,18,98,11.41,overcast clouds,0,0
265,Zhuhai,CN,2020-12-09 08:55:34,22.28,113.57,73.0,68,20,5.82,few clouds,0,0
266,Muros,ES,2020-12-09 08:55:35,42.78,-9.06,39.99,93,20,3.36,few clouds,0,0
267,Udachnyy,RU,2020-12-09 08:55:35,66.42,112.4,-36.4,65,0,4.47,clear sky,0,0
268,Cody,US,2020-12-09 08:51:43,44.53,-109.06,35.6,43,1,6.93,clear sky,0,0
269,Bronnoysund,NO,2020-12-09 08:55:36,65.46,12.2,39.2,60,75,24.16,broken clouds,0,0
270,Richards Bay,ZA,2020-12-09 08:55:36,-28.78,32.04,87.53,48,81,16.37,broken clouds,0,0
271,Lavrentiya,RU,2020-12-09 08:55:36,65.58,-171.0,7.68,88,11,10.2,few clouds,0,0
272,Cabo San Lucas,MX,2020-12-09 08:55:37,22.89,-109.91,64.99,78,21,1.01,few clouds,0,0
273,Kinel,RU,2020-12-09 08:55:37,53.23,50.65,12.2,72,0,4.47,clear sky,0,0
274,Camaqua,BR,2020-12-09 08:55:37,-30.85,-51.81,64.38,94,66,2.24,broken clouds,0,0
275,Bela Vista,BR,2020-12-09 08:55:37,-22.11,-56.52,65.5,67,0,0.92,clear sky,0,0
276,Dvinskoy,RU,2020-12-09 08:55:38,62.15,45.12,18.66,93,1,4.34,clear sky,0,0
277,Bathsheba,BB,2020-12-09 08:55:38,13.22,-59.52,73.4,83,40,5.82,scattered clouds,0,0
278,San Rafael,AR,2020-12-09 08:55:38,-34.62,-68.33,68.49,23,32,13.27,scattered clouds,0,0
279,General Roca,AR,2020-12-09 08:55:38,-39.03,-67.58,60.8,44,0,5.03,clear sky,0,0
280,Bengkulu,ID,2020-12-09 08:55:38,-3.8,102.27,80.98,82,80,5.1,broken clouds,0,0
281,Kirksville,US,2020-12-09 08:55:39,40.19,-92.58,37.99,86,1,4.7,clear sky,0,0
282,Seoul,KR,2020-12-09 08:54:28,37.57,126.98,42.8,44,20,1.57,few clouds,0,0
283,Havelock,US,2020-12-09 08:55:39,34.88,-76.9,33.01,89,1,6.26,clear sky,0,0
284,Mount Gambier,AU,2020-12-09 08:55:39,-37.83,140.77,62.6,55,40,12.75,scattered clouds,0,0
285,Ewa Beach,US,2020-12-09 08:55:40,21.32,-158.01,77.0,88,40,7.09,scattered clouds,0,0
286,Adrar,MR,2020-12-09 08:55:40,20.5,-10.07,60.55,30,12,11.74,few clouds,0,0
287,Dubbo,AU,2020-12-09 08:55:40,-32.25,148.62,80.6,18,0,5.82,clear sky,0,0
288,Lata,PT,2020-12-09 08:55:40,40.16,-8.33,37.0,95,81,1.01,broken clouds,0,0
289,Barreirinhas,BR,2020-12-09 08:55:40,-2.75,-42.83,78.71,76,99,8.25,light rain,0,0
290,Bhopal,IN,2020-12-09 08:55:41,23.27,77.4,86.0,30,12,3.36,haze,0,0
291,Glushkovo,RU,2020-12-09 08:55:41,51.34,34.63,26.26,84,0,15.23,clear sky,0,0
292,Woodward,US,2020-12-09 08:55:41,36.43,-99.39,33.8,64,1,11.41,clear sky,0,0
293,Dhanera,IN,2020-12-09 08:55:42,24.52,72.02,87.49,18,0,4.21,clear sky,0,0
294,Necochea,AR,2020-12-09 08:55:42,-38.55,-58.74,61.0,75,20,12.57,few clouds,0,0
295,Gat,IL,2020-12-09 08:54:09,31.61,34.76,68.0,28,17,3.36,few clouds,0,0
296,Samarai,PG,2020-12-09 08:55:42,-10.62,150.67,83.46,75,78,6.35,light rain,0,0
297,Pemangkat,ID,2020-12-09 08:55:42,1.17,108.97,80.78,85,100,11.88,overcast clouds,0,0
298,Shitanjing,CN,2020-12-09 08:55:43,39.23,106.34,20.39,92,27,6.8,scattered clouds,0,0
299,Mehamn,NO,2020-12-09 08:55:43,71.04,27.85,35.6,80,75,25.28,broken clouds,0,0
300,Saint-Philippe,RE,2020-12-09 08:55:43,-21.36,55.77,78.8,69,75,27.51,light rain,0,0
301,Nouakchott,MR,2020-12-09 08:55:16,18.09,-15.98,57.2,35,0,10.29,clear sky,0,0
302,Villazon,BO,2020-12-09 08:55:43,-22.09,-65.59,50.02,67,92,7.67,light rain,0,0
303,Kieta,PG,2020-12-09 08:55:44,-6.22,155.63,80.47,77,100,2.35,light rain,0,0
304,Denpasar,ID,2020-12-09 08:55:44,-8.65,115.22,86.0,70,20,16.11,few clouds,0,0
305,Atar,MR,2020-12-09 08:55:44,20.52,-13.05,65.52,26,100,14.47,overcast clouds,0,0
306,East Greenwich,US,2020-12-09 08:55:44,41.66,-71.46,27.0,79,1,3.36,clear sky,0,0
307,Urla,TR,2020-12-09 08:55:45,38.32,26.76,57.2,81,40,8.05,light rain,0,0
308,Gazojak,TM,2020-12-09 08:55:45,41.19,61.4,32.02,69,43,5.55,scattered clouds,0,0
309,Nemuro,JP,2020-12-09 08:55:45,43.32,145.57,21.2,73,20,2.24,few clouds,0,0
310,College,US,2020-12-09 08:55:45,64.86,-147.8,5.0,77,75,1.63,broken clouds,0,0
311,Posse,BR,2020-12-09 08:54:53,-14.09,-46.37,66.9,95,100,5.73,light rain,0,0
312,Pahrump,US,2020-12-09 08:55:46,36.21,-115.98,42.8,15,1,5.82,clear sky,0,0
313,Talaya,RU,2020-12-09 08:55:46,61.38,152.75,-9.06,88,100,2.39,overcast clouds,0,0
314,San Quintin,MX,2020-12-09 08:55:46,30.48,-115.95,39.99,6,0,11.01,clear sky,0,0
315,Olinda,BR,2020-12-09 08:55:46,-8.01,-34.86,78.8,74,75,6.93,broken clouds,0,0
316,Sobolevo,RU,2020-12-09 08:55:46,54.43,31.9,23.5,89,0,12.44,clear sky,0,0
317,Ponta Pora,BR,2020-12-09 08:55:47,-22.54,-55.73,64.22,55,0,2.42,clear sky,0,0
318,Balabac,PH,2020-12-09 08:55:47,7.99,117.06,83.35,79,100,8.86,light rain,0,0
319,Barranca,PE,2020-12-09 08:55:48,-10.75,-77.77,63.9,92,43,4.79,scattered clouds,0,0
320,Bilibino,RU,2020-12-09 08:55:48,68.05,166.44,-2.61,90,100,3.24,overcast clouds,0,0
321,Yeppoon,AU,2020-12-09 08:55:48,-23.13,150.73,78.8,65,75,12.75,broken clouds,0,0
322,Pierre,US,2020-12-09 08:55:48,44.37,-100.35,48.99,39,1,10.29,clear sky,0,0
323,Saint-Georges,GD,2020-12-09 08:55:49,12.06,-61.75,77.0,83,20,4.7,few clouds,0,0
324,Uwajima,JP,2020-12-09 08:55:49,33.22,132.56,55.4,58,20,6.93,few clouds,0,0
325,Luancheng,CN,2020-12-09 08:55:49,37.88,114.65,39.2,48,8,4.47,haze,0,0
326,Taga,RO,2020-12-09 08:55:50,46.95,24.05,37.4,86,0,8.05,clear sky,0,0
327,Changji,CN,2020-12-09 08:55:50,44.02,87.32,8.6,92,40,2.24,fog,0,0
328,Paro,BT,2020-12-09 08:55:50,27.43,89.41,56.79,46,31,5.28,scattered clouds,0,0
329,Hamilton,US,2020-12-09 08:55:50,39.18,-84.53,34.0,80,1,4.7,clear sky,0,0
330,Makakilo City,US,2020-12-09 08:55:51,21.35,-158.09,77.0,88,40,7.54,scattered clouds,0,0
331,Chuy,UY,2020-12-09 08:55:51,-33.7,-53.46,60.24,94,1,3.71,clear sky,0,0
332,Shasta Lake,US,2020-12-09 08:55:51,40.68,-122.37,42.8,56,1,3.36,clear sky,0,0
333,Teguldet,RU,2020-12-09 08:55:51,57.31,88.17,-4.25,91,80,5.5,broken clouds,0,0
334,Roanoke,US,2020-12-09 08:55:08,37.27,-79.94,32.0,63,1,8.05,clear sky,0,0
335,Forest Grove,US,2020-12-09 08:54:01,45.52,-123.11,48.2,87,90,10.29,overcast clouds,0,0
336,Shingu,JP,2020-12-09 08:55:52,33.73,135.98,51.8,66,75,3.36,broken clouds,0,0
337,Pamplona,ES,2020-12-09 08:51:20,42.82,-1.64,39.0,100,75,2.24,broken clouds,0,0
338,Vestmannaeyjar,IS,2020-12-09 08:55:53,63.44,-20.27,37.4,74,75,27.51,broken clouds,0,0
339,Avera,US,2020-12-09 08:55:53,33.19,-82.53,32.0,85,1,4.7,clear sky,0,0
340,The Valley,AI,2020-12-09 08:51:10,18.22,-63.06,77.0,83,40,16.11,scattered clouds,0,0
341,Mlonggo,ID,2020-12-09 08:55:53,-6.53,110.7,80.6,88,40,13.87,moderate rain,0,0
342,Mwene-Ditu,CD,2020-12-09 08:55:53,-7.0,23.45,74.35,87,98,5.99,light rain,0,0
343,Maceio,BR,2020-12-09 08:55:54,-9.67,-35.74,75.2,94,40,1.12,scattered clouds,0,0
344,Atkarsk,RU,2020-12-09 08:55:54,51.87,45.01,20.88,91,0,6.6,clear sky,0,0
345,Sechura,PE,2020-12-09 08:55:54,-5.56,-80.82,67.95,82,100,6.29,overcast clouds,0,0
346,Abbeville,FR,2020-12-09 08:55:54,50.1,1.83,36.0,47,100,8.75,light rain,0,0
347,Maniitsoq,GL,2020-12-09 08:55:55,65.42,-52.9,22.41,81,93,9.24,overcast clouds,0,0
348,Dali,CN,2020-12-09 08:55:55,25.7,100.18,59.86,46,61,7.36,broken clouds,0,0
349,Susanville,US,2020-12-09 08:55:55,40.42,-120.65,23.0,85,1,3.36,clear sky,0,0
350,Mao,ES,2020-12-09 08:55:55,39.89,4.27,50.0,71,40,11.41,scattered clouds,0,0
351,Port Macquarie,AU,2020-12-09 08:55:56,-31.43,152.92,69.01,61,14,7.29,few clouds,0,0
352,Boa Vista,BR,2020-12-09 08:50:59,2.82,-60.67,78.8,78,0,4.7,clear sky,0,0
353,Grand Gaube,MU,2020-12-09 08:55:56,-20.01,57.66,81.0,68,38,14.0,scattered clouds,0,0
354,Wana,PK,2020-12-09 08:55:56,32.3,69.57,55.18,37,0,7.65,clear sky,0,0
355,Urucara,BR,2020-12-09 08:51:09,-2.54,-57.76,73.18,90,83,1.66,broken clouds,0,0
356,Panzhihua,CN,2020-12-09 08:55:57,26.59,101.71,69.19,40,95,1.59,overcast clouds,0,0
357,Hobyo,SO,2020-12-09 08:55:57,5.35,48.53,82.54,59,17,21.07,few clouds,0,0
358,Kloulklubed,PW,2020-12-09 08:55:57,7.04,134.26,82.4,83,75,79.41,broken clouds,0,0
359,Ebolowa,CM,2020-12-09 08:55:57,2.9,11.15,78.96,70,100,2.08,overcast clouds,0,0
360,Mursalimkino,RU,2020-12-09 08:55:57,55.04,58.56,19.22,92,0,2.75,clear sky,0,0
361,Yatou,CN,2020-12-09 08:55:58,37.15,122.38,39.79,69,97,4.83,overcast clouds,0,0
362,Kampong Cham,KH,2020-12-09 08:55:58,11.99,105.46,85.12,60,51,7.52,broken clouds,0,0
363,Troitsko-Pechorsk,RU,2020-12-09 08:55:58,62.71,56.2,19.09,97,85,4.7,overcast clouds,0,0
364,Sarkand,KZ,2020-12-09 08:55:58,45.41,79.92,23.27,84,0,1.16,clear sky,0,0
365,Mahalapye,BW,2020-12-09 08:55:58,-23.1,26.81,83.08,41,0,11.48,clear sky,0,0
366,Diego De Almagro,CL,2020-12-09 08:51:28,-26.37,-70.05,53.35,62,0,0.98,clear sky,0,0
367,Alamosa,US,2020-12-09 08:55:59,37.47,-105.87,6.8,84,1,3.09,clear sky,0,0
368,Miraflores,MX,2020-12-09 08:55:59,19.22,-98.81,55.99,54,90,8.05,overcast clouds,0,0
369,Coolum Beach,AU,2020-12-09 08:52:12,-26.53,153.1,72.0,68,2,7.63,clear sky,0,0
370,Aljezur,PT,2020-12-09 08:56:00,37.32,-8.8,54.0,91,32,1.01,scattered clouds,0,0
371,Kaitangata,NZ,2020-12-09 08:56:00,-46.28,169.85,59.0,72,100,3.0,overcast clouds,0,0
372,Tolaga Bay,NZ,2020-12-09 08:56:01,-38.37,178.3,65.98,74,4,8.23,light rain,0,0
373,Kangaatsiaq,GL,2020-12-09 08:56:01,68.31,-53.46,21.16,96,100,13.73,overcast clouds,0,0
374,Shenjiamen,CN,2020-12-09 08:56:01,29.96,122.3,56.44,66,59,8.03,broken clouds,0,0
375,Cayenne,GF,2020-12-09 08:53:03,4.93,-52.33,69.8,100,0,5.86,clear sky,0,0
376,Imeni Poliny Osipenko,RU,2020-12-09 08:56:01,52.42,136.49,6.08,93,73,7.14,broken clouds,0,0
377,Sur,OM,2020-12-09 08:56:02,22.57,59.53,76.87,61,0,15.7,clear sky,0,0
378,Tongchuan,CN,2020-12-09 08:56:02,35.08,109.09,37.36,76,90,0.22,overcast clouds,0,0
379,Folldal,NO,2020-12-09 08:56:02,62.13,10.0,24.12,94,87,6.46,overcast clouds,0,0
380,San Carlos,VE,2020-12-09 08:56:02,9.66,-68.58,71.74,91,69,2.35,broken clouds,0,0
381,Viisoara,RO,2020-12-09 08:56:02,46.55,23.92,37.4,100,90,2.24,fog,0,0
382,Inhambane,MZ,2020-12-09 08:51:28,-23.86,35.38,79.81,55,18,8.75,few clouds,0,0
383,Opuwo,NA,2020-12-09 08:56:03,-18.06,13.84,87.31,13,81,3.51,broken clouds,0,0
384,Manacapuru,BR,2020-12-09 08:56:03,-3.3,-60.62,75.2,94,75,2.82,broken clouds,0,0
385,Mariinskiy Posad,RU,2020-12-09 08:56:04,56.12,47.72,19.4,57,0,6.71,clear sky,0,0
386,Mana,GF,2020-12-09 08:56:04,5.66,-53.78,76.6,89,67,5.53,broken clouds,0,0
387,Bennettsville,US,2020-12-09 08:56:04,34.62,-79.68,32.0,100,1,1.79,clear sky,0,0
388,Oranjestad,AW,2020-12-09 08:56:04,12.52,-70.03,80.6,78,20,10.29,few clouds,0,0
389,Kavaratti,IN,2020-12-09 08:56:04,10.57,72.64,87.8,79,40,6.93,moderate rain,0,0
390,Eydhafushi,MV,2020-12-09 08:56:04,5.1,73.07,82.98,74,2,10.6,clear sky,0,0
391,Jizan,SA,2020-12-09 08:56:05,17.33,42.67,87.8,66,40,5.82,scattered clouds,0,0
392,Fort Abbas,PK,2020-12-09 08:56:05,29.19,72.85,78.91,25,93,10.4,overcast clouds,0,0
393,Longyan,CN,2020-12-09 08:56:05,25.11,117.02,69.01,58,19,1.99,few clouds,0,0
394,Alexandria,EG,2020-12-09 08:54:51,31.22,29.96,66.2,52,0,6.93,clear sky,0,0
395,Zhigansk,RU,2020-12-09 08:56:06,66.77,123.37,-34.94,82,2,7.49,clear sky,0,0
396,Teofilo Otoni,BR,2020-12-09 08:56:06,-17.86,-41.51,70.09,92,21,1.7,few clouds,0,0
397,Gopalpur,IN,2020-12-09 08:56:06,19.27,84.92,80.78,45,0,7.52,clear sky,0,0
398,Kalmunai,LK,2020-12-09 08:56:06,7.42,81.82,82.78,75,23,9.28,light rain,0,0
399,Waingapu,ID,2020-12-09 08:56:07,-9.66,120.26,84.78,72,100,13.02,overcast clouds,0,0
400,Padang,ID,2020-12-09 08:54:57,-0.95,100.35,84.63,66,46,3.74,scattered clouds,0,0
401,Severnyy,RU,2020-12-09 08:56:07,50.68,36.55,24.8,53,0,13.42,clear sky,0,0
402,Pundaguitan,PH,2020-12-09 08:56:07,6.37,126.17,83.93,72,38,8.48,scattered clouds,0,0
403,Rawah,IQ,2020-12-09 08:56:07,34.48,41.91,63.81,41,0,8.32,clear sky,0,0
404,Tchibanga,GA,2020-12-09 08:56:08,-2.85,11.03,78.8,83,75,2.24,broken clouds,0,0
405,Senador Jose Porfirio,BR,2020-12-09 08:56:08,-2.59,-51.95,73.42,93,64,2.84,broken clouds,0,0
406,Killybegs,IE,2020-12-09 08:56:08,54.63,-8.45,42.8,93,40,9.17,moderate rain,0,0
407,Nguruka,TZ,2020-12-09 08:56:08,-5.11,31.04,81.1,62,46,3.44,light rain,0,0
408,Manado,ID,2020-12-09 08:54:25,1.49,124.85,86.0,74,40,3.36,light rain,0,0
409,Tayturka,RU,2020-12-09 08:56:09,52.87,103.46,8.91,91,98,5.46,overcast clouds,0,0
410,Chakwal,PK,2020-12-09 08:56:09,32.93,72.86,60.8,77,75,11.41,haze,0,0
411,Vao,NC,2020-12-09 08:56:09,-22.67,167.48,77.68,90,7,15.12,clear sky,0,0
412,North Bend,US,2020-12-09 08:56:09,43.41,-124.22,52.0,100,90,11.41,mist,0,0
413,Rumonge,BI,2020-12-09 08:56:10,-3.97,29.44,81.66,58,39,2.55,light rain,0,0
414,Vilhena,BR,2020-12-09 08:56:10,-12.74,-60.15,68.47,87,93,2.35,overcast clouds,0,0
415,Emba,KZ,2020-12-09 08:56:10,48.83,58.14,15.8,95,61,2.91,broken clouds,0,0
416,Esperance,AU,2020-12-09 08:56:10,-33.87,121.9,71.6,73,40,19.46,light rain,0,0
417,Jinxiang,CN,2020-12-09 08:56:11,27.43,120.61,59.14,75,95,9.75,overcast clouds,0,0
418,Perene,PE,2020-12-09 08:56:11,-10.95,-75.23,67.69,73,94,1.28,overcast clouds,0,0
419,Kiruna,SE,2020-12-09 08:56:11,67.86,20.23,30.2,92,97,19.46,light snow,0,0
420,Hay River,CA,2020-12-09 08:56:11,60.82,-115.8,12.2,85,26,2.46,scattered clouds,0,0
421,Saint-Paul,RE,2020-12-09 08:56:11,-21.01,55.27,82.4,61,40,24.16,scattered clouds,0,0
422,Bethanien,NA,2020-12-09 08:56:12,-26.5,17.16,80.78,14,0,2.08,clear sky,0,0
423,Inuvik,CA,2020-12-09 08:56:12,68.35,-133.72,3.2,84,100,9.17,overcast clouds,0,0
424,La Union,PE,2020-12-09 08:56:12,-5.4,-80.75,69.01,78,100,6.71,overcast clouds,0,0
425,Oro Valley,US,2020-12-09 08:56:12,32.39,-110.97,59.0,27,0,1.01,clear sky,0,0
426,Bambanglipuro,ID,2020-12-09 08:56:13,-7.95,110.28,81.97,75,46,17.83,heavy intensity rain,0,0
427,Tazovskiy,RU,2020-12-09 08:56:13,67.47,78.7,-1.5,87,100,15.64,overcast clouds,0,0
428,Isangel,VU,2020-12-09 08:56:13,-19.55,169.27,79.56,83,44,10.56,scattered clouds,0,0
429,Sao Joaquim,BR,2020-12-09 08:56:06,-28.29,-49.93,51.22,100,2,1.16,clear sky,0,0
430,Aykhal,RU,2020-12-09 08:56:13,66.0,111.5,-36.4,65,0,4.47,clear sky,0,0
431,Jimma,ET,2020-12-09 08:56:13,7.67,36.83,78.93,36,95,2.3,overcast clouds,0,0
432,Suclayin,PH,2020-12-09 08:56:14,15.76,121.55,79.65,83,37,5.84,scattered clouds,0,0
433,Praia,CV,2020-12-09 08:56:14,14.92,-23.51,73.4,73,75,11.41,broken clouds,0,0
434,Jiexiu,CN,2020-12-09 08:56:14,37.02,111.91,34.23,79,42,8.55,scattered clouds,0,0
435,Ippy,CF,2020-12-09 08:56:15,6.27,21.22,90.84,16,64,8.59,broken clouds,0,0
436,Rawson,AR,2020-12-09 08:52:43,-43.3,-65.1,60.66,43,0,22.84,clear sky,0,0
437,Saint-Leu,RE,2020-12-09 08:56:15,-21.15,55.28,78.8,69,75,27.51,broken clouds,0,0
438,Villa Maria,AR,2020-12-09 08:51:39,-32.41,-63.24,66.99,75,0,4.0,clear sky,0,0
439,Port Augusta,AU,2020-12-09 08:56:15,-32.5,137.77,82.4,21,67,13.87,broken clouds,0,0
440,Vostok,RU,2020-12-09 08:56:16,46.49,135.88,4.05,94,31,4.68,scattered clouds,0,0
441,Pemberton,CA,2020-12-09 08:56:16,50.32,-122.8,39.99,95,98,1.66,overcast clouds,0,0
442,Belyy Yar,RU,2020-12-09 08:56:16,53.6,91.39,14.0,61,99,4.47,overcast clouds,0,0
443,Acari,PE,2020-12-09 08:56:16,-15.43,-74.62,66.69,72,97,3.09,overcast clouds,0,0
444,Belmonte,BR,2020-12-09 08:56:16,-15.86,-38.88,75.2,83,75,4.7,broken clouds,0,0
445,Hofn,IS,2020-12-09 08:56:17,64.25,-15.21,33.8,80,90,10.29,light snow,0,0
446,Mezen,RU,2020-12-09 08:56:17,65.85,44.24,27.21,96,100,9.26,overcast clouds,0,0
447,Mariana,BR,2020-12-09 08:56:17,-20.38,-43.42,67.69,88,100,0.58,heavy intensity rain,0,0
448,Saint-Augustin,CA,2020-12-09 08:56:17,51.23,-58.65,35.35,92,100,15.5,overcast clouds,0,0
449,Casambalangan,PH,2020-12-09 08:56:18,18.38,122.13,78.4,88,85,10.2,overcast clouds,0,0
450,Shirokiy,RU,2020-12-09 08:56:18,49.76,129.52,6.57,92,65,4.52,broken clouds,0,0
451,Kununurra,AU,2020-12-09 08:56:18,-15.77,128.73,91.4,55,91,20.8,overcast clouds,0,0
452,Iberia,US,2020-12-09 08:56:18,29.95,-91.75,48.2,100,1,3.36,clear sky,0,0
453,Togur,RU,2020-12-09 08:56:18,58.36,82.83,1.62,93,98,5.12,overcast clouds,0,0
454,Zyryanka,RU,2020-12-09 08:56:19,65.75,150.85,-25.24,84,98,0.87,overcast clouds,0,0
455,Teguise,ES,2020-12-09 08:56:19,29.06,-13.56,62.6,82,40,8.05,scattered clouds,0,0
456,Ibra,OM,2020-12-09 08:56:19,22.69,58.53,79.48,26,0,4.85,clear sky,0,0
457,Inongo,CD,2020-12-09 08:56:19,-1.95,18.27,75.87,83,100,5.86,overcast clouds,0,0
458,Manono,CD,2020-12-09 08:56:20,-7.3,27.42,83.79,70,91,3.33,light rain,0,0
459,Krasnozatonskiy,RU,2020-12-09 08:56:20,61.68,50.98,8.6,84,0,4.47,clear sky,0,0
460,Zabid,YE,2020-12-09 08:56:20,14.2,43.32,86.92,49,78,7.65,broken clouds,0,0
461,Lambarene,GA,2020-12-09 08:56:20,-0.7,10.24,80.6,83,75,1.92,broken clouds,0,0
462,Saint Anthony,US,2020-12-09 08:56:21,45.02,-93.22,34.0,89,1,4.0,clear sky,0,0
463,Jatai,BR,2020-12-09 08:56:21,-17.88,-51.71,67.28,90,14,1.81,few clouds,0,0
464,Carutapera,BR,2020-12-09 08:56:21,-1.2,-46.02,78.73,81,100,7.96,heavy intensity rain,0,0
465,Olafsvik,IS,2020-12-09 08:56:21,64.89,-23.71,33.28,92,100,14.27,overcast clouds,0,0
466,Manggar,ID,2020-12-09 08:56:21,-2.88,108.27,82.54,76,100,12.01,overcast clouds,0,0
467,Narsipatnam,IN,2020-12-09 08:53:09,17.67,82.62,84.2,45,0,6.93,haze,0,0
468,Clyde River,CA,2020-12-09 08:56:22,70.47,-68.59,6.8,92,90,3.36,light snow,0,0
469,Prainha,BR,2020-12-09 08:56:22,-1.8,-53.48,72.86,96,21,2.71,few clouds,0,0
470,Uarini,BR,2020-12-09 08:56:22,-2.99,-65.11,72.45,97,55,0.98,broken clouds,0,0
471,Winnemucca,US,2020-12-09 08:56:22,40.97,-117.74,14.0,72,1,3.36,clear sky,0,0
472,Am Timan,TD,2020-12-09 08:56:22,11.03,20.28,92.43,12,56,12.46,broken clouds,0,0
473,Ferkessedougou,CI,2020-12-09 08:56:23,9.6,-5.2,84.25,41,0,2.75,clear sky,0,0
474,Carupano,VE,2020-12-09 08:56:23,10.67,-63.26,76.28,86,36,6.29,scattered clouds,0,0
475,Mogadishu,SO,2020-12-09 08:53:53,2.04,45.34,86.0,58,75,16.11,broken clouds,0,0
476,Magan,ES,2020-12-09 08:56:23,39.97,-3.93,42.01,80,0,9.17,clear sky,0,0
477,Sao Jose Da Coroa Grande,BR,2020-12-09 08:56:23,-8.9,-35.15,77.79,77,19,9.35,few clouds,0,0
478,Teya,RU,2020-12-09 08:56:24,60.38,92.63,-16.85,85,100,3.04,overcast clouds,0,0
479,Barsovo,RU,2020-12-09 08:56:24,61.17,73.17,21.2,100,75,8.95,light shower snow,0,0
480,Ifanadiana,MG,2020-12-09 08:56:24,-21.3,47.63,75.38,65,88,4.03,overcast clouds,0,0
481,Klaksvik,FO,2020-12-09 08:56:24,62.23,-6.59,44.6,87,97,21.92,overcast clouds,0,0
482,Marana,US,2020-12-09 08:56:24,32.44,-111.23,61.0,19,1,4.7,clear sky,0,0
483,Itaituba,BR,2020-12-09 08:56:25,-4.28,-55.98,72.3,95,14,0.83,moderate rain,0,0
484,Axim,GH,2020-12-09 08:56:25,4.87,-2.24,81.91,77,65,7.58,broken clouds,0,0
485,Bowen,AU,2020-12-09 08:56:25,-20.02,148.23,80.6,74,1,16.11,light rain,0,0
486,Baykit,RU,2020-12-09 08:56:25,61.67,96.37,-15.7,83,92,2.66,overcast clouds,0,0
487,San Jose,US,2020-12-09 08:53:38,37.34,-121.89,54.0,49,40,3.36,scattered clouds,0,0
488,Wattegama,LK,2020-12-09 08:56:26,6.8,81.48,87.8,66,40,8.05,scattered clouds,0,0
489,Brokopondo,SR,2020-12-09 08:56:26,4.75,-55.17,75.0,89,91,5.37,overcast clouds,0,0
490,Puerto Baquerizo Moreno,EC,2020-12-09 08:52:24,-0.9,-89.6,71.53,89,46,10.71,scattered clouds,0,0
491,Petropavlovsk-Kamchatskiy,RU,2020-12-09 08:56:26,53.05,158.65,8.6,65,79,6.71,broken clouds,0,0
492,Moindou,NC,2020-12-09 08:56:27,-21.69,165.68,80.6,83,0,3.36,clear sky,0,0
493,Palanas,PH,2020-12-09 08:56:27,12.15,123.92,79.9,85,100,15.39,moderate rain,0,0
494,Hit,IQ,2020-12-09 08:56:27,33.64,42.83,65.53,45,0,9.15,clear sky,0,0
495,Tyazhinskiy,RU,2020-12-09 08:56:27,56.12,88.52,-3.69,91,72,7.87,broken clouds,0,0
496,Smithers,CA,2020-12-09 08:56:27,54.78,-127.17,24.8,92,75,4.7,fog,0,0
497,Turukhansk,RU,2020-12-09 08:56:28,65.82,87.98,-29.18,84,94,4.88,overcast clouds,0,0
498,Morros,BR,2020-12-09 08:56:28,-9.45,-46.3,71.13,86,65,0.65,light rain,0,0
499,Chiang Khong,TH,2020-12-09 08:56:28,20.26,100.4,80.6,51,20,4.7,few clouds,0,0
500,Neryungri,RU,2020-12-09 08:56:28,56.67,124.65,-7.87,87,90,3.89,overcast clouds,0,0
501,Palenque,MX,2020-12-09 08:56:28,17.52,-91.97,65.68,89,85,1.34,light rain,0,0
502,Cururupu,BR,2020-12-09 08:56:29,-1.83,-44.87,76.46,85,90,4.52,moderate rain,0,0
503,Walla Walla,US,2020-12-09 08:56:29,46.06,-118.34,45.0,100,90,4.7,fog,0,0
504,Miquelon,PM,2020-12-09 08:56:29,47.1,-56.38,37.83,91,100,27.89,overcast clouds,0,0
505,Porto Nacional,BR,2020-12-09 08:56:29,-10.71,-48.42,77.0,83,20,5.82,light rain,0,0
506,Alice Springs,AU,2020-12-09 08:56:30,-23.7,133.88,86.0,15,90,11.41,overcast clouds,0,0
507,Kashi,CN,2020-12-09 08:56:30,39.45,75.98,30.2,80,90,2.24,mist,0,0
508,Chifeng,CN,2020-12-09 08:56:30,42.27,118.96,17.67,86,0,10.33,clear sky,0,0
509,Jeremie,HT,2020-12-09 08:56:30,18.65,-74.12,76.12,79,57,0.87,broken clouds,0,0
510,Marakkanam,IN,2020-12-09 08:56:30,12.2,79.95,81.41,74,5,15.57,clear sky,0,0
511,Luangwa,ZM,2020-12-09 08:56:31,-15.62,30.42,82.04,65,88,8.19,overcast clouds,0,0
512,Baturaja,ID,2020-12-09 08:56:31,-4.13,104.17,84.16,78,93,2.64,light rain,0,0
513,Wanning,CN,2020-12-09 08:56:31,18.8,110.4,71.28,80,99,12.15,overcast clouds,0,0
514,Newcastleton,GB,2020-12-09 08:56:31,55.18,-2.81,39.2,100,97,4.7,heavy intensity drizzle,0,0
515,Bandarbeyla,SO,2020-12-09 08:56:31,9.49,50.81,80.13,60,0,27.31,clear sky,0,0
516,Kodinsk,RU,2020-12-09 08:56:32,58.69,99.18,-12.26,85,100,9.6,overcast clouds,0,0
517,Leshukonskoye,RU,2020-12-09 08:56:32,64.9,45.76,19.4,97,100,6.76,overcast clouds,0,0
518,Half Moon Bay,US,2020-12-09 08:54:08,37.46,-122.43,53.01,93,90,10.29,mist,0,0
519,Villacarrillo,ES,2020-12-09 08:56:32,38.12,-3.08,37.45,92,92,3.67,overcast clouds,0,0
520,Ayacucho,PE,2020-12-09 08:56:33,-13.16,-74.22,55.98,70,100,0.81,overcast clouds,0,0
521,Kirkcudbright,GB,2020-12-09 08:56:33,54.84,-4.05,39.99,92,15,7.83,few clouds,0,0
522,Beckley,US,2020-12-09 08:56:33,37.78,-81.19,23.0,85,1,5.82,clear sky,0,0
523,Springville,US,2020-12-09 08:56:33,40.17,-111.61,28.99,92,1,3.36,clear sky,0,0
524,Santiago,CL,2020-12-09 08:56:21,-33.46,-70.65,60.01,67,0,3.36,clear sky,0,0
525,Yulara,AU,2020-12-09 08:56:34,-25.24,130.99,80.6,32,90,16.11,overcast clouds,0,0
526,Lingao,CN,2020-12-09 08:56:34,19.91,109.69,69.78,73,17,11.7,few clouds,0,0
527,Tigil,RU,2020-12-09 08:56:34,57.8,158.67,10.44,88,100,2.71,overcast clouds,0,0
528,Savinka,RU,2020-12-09 08:56:35,50.08,47.1,20.55,81,0,8.63,clear sky,0,0
529,Barahona,DO,2020-12-09 08:56:35,18.21,-71.1,72.72,81,8,4.63,clear sky,0,0
530,Renigunta,IN,2020-12-09 08:56:35,13.65,79.52,80.6,78,75,10.29,haze,0,0
531,Rovaniemi,FI,2020-12-09 08:56:36,66.5,25.72,26.6,92,90,11.41,overcast clouds,0,0
532,Bella Vista,US,2020-12-09 08:56:36,36.43,-94.23,42.8,65,1,5.82,clear sky,0,0
533,Mattru,SL,2020-12-09 08:56:36,7.62,-11.83,79.18,86,11,1.77,few clouds,0,0
534,Jiaozuo,CN,2020-12-09 08:56:37,35.24,113.23,46.51,55,72,4.43,broken clouds,0,0
535,Kedrovyy,RU,2020-12-09 08:56:37,56.17,91.82,-0.4,64,0,11.18,clear sky,0,0
536,Bay Roberts,CA,2020-12-09 08:56:38,47.6,-53.26,41.0,93,90,13.87,mist,0,0
537,Anito,PH,2020-12-09 08:56:38,12.45,125.29,79.81,83,100,8.46,overcast clouds,0,0
538,Loviisa,FI,2020-12-09 08:56:38,60.46,26.23,28.4,79,75,11.41,broken clouds,0,0
539,Hervey Bay,AU,2020-12-09 08:56:38,-25.3,152.85,75.99,61,0,5.01,clear sky,0,0
540,Riyadh,SA,2020-12-09 08:53:02,24.69,46.72,69.8,32,0,5.82,clear sky,0,0
541,Mitsamiouli,KM,2020-12-09 08:56:39,-11.38,43.28,82.87,68,89,7.09,light rain,0,0
542,Nangomba,TZ,2020-12-09 08:56:39,-10.9,38.5,99.09,26,15,4.54,few clouds,0,0
543,Brigantine,US,2020-12-09 08:56:39,39.41,-74.36,34.0,74,1,3.36,clear sky,0,0
544,Pisco,PE,2020-12-09 08:56:39,-13.7,-76.22,64.99,88,100,9.17,overcast clouds,0,0
545,Abu Samrah,SY,2020-12-09 08:56:39,35.3,37.18,55.22,66,8,3.83,clear sky,0,0
546,Talnakh,RU,2020-12-09 08:56:40,69.49,88.4,-20.2,75,0,11.18,clear sky,0,0
547,Kutum,SD,2020-12-09 08:56:40,14.2,24.67,80.4,16,11,19.3,few clouds,0,0
548,Derzhavinsk,KZ,2020-12-09 08:56:40,51.1,66.32,13.68,96,98,9.28,overcast clouds,0,0
549,Iquique,CL,2020-12-09 08:56:40,-20.22,-70.14,62.6,67,0,2.24,clear sky,0,0
550,Umm Lajj,SA,2020-12-09 08:56:40,25.02,37.27,80.74,39,0,13.2,clear sky,0,0
551,Kassala,SD,2020-12-09 08:56:41,15.45,36.4,93.83,18,46,13.87,scattered clouds,0,0
552,Quincy,US,2020-12-09 08:56:41,42.25,-71.0,28.0,85,12,10.29,few clouds,0,0
553,Pedernales,DO,2020-12-09 08:56:41,18.04,-71.74,75.43,71,5,2.53,clear sky,0,0
554,Vardo,NO,2020-12-09 08:56:41,70.37,31.11,32.0,91,75,33.33,broken clouds,0,0
555,Qaqortoq,GL,2020-12-09 08:56:42,60.72,-46.03,23.0,41,0,10.29,clear sky,0,0
556,Caravelas,BR,2020-12-09 08:56:42,-17.71,-39.25,76.77,81,63,8.99,broken clouds,0,0
557,At-Bashi,KG,2020-12-09 08:56:42,41.17,75.81,24.8,86,100,0.78,overcast clouds,0,0
558,Glazov,RU,2020-12-09 08:56:43,58.14,52.66,18.25,92,0,6.89,clear sky,0,0
559,Wahiawa,US,2020-12-09 08:56:43,21.5,-158.02,77.0,94,1,4.14,light rain,0,0
560,Podyuga,RU,2020-12-09 08:56:43,61.09,40.86,20.17,89,0,5.68,clear sky,0,0
561,Danielskuil,ZA,2020-12-09 08:56:43,-28.19,23.54,77.97,49,2,24.18,light rain,0,0
562,San Patricio,US,2020-12-09 08:56:44,28.02,-97.52,53.6,81,20,5.82,few clouds,0,0
563,Tori Fatehpur,IN,2020-12-09 08:56:44,25.45,79.13,85.51,22,0,4.5,clear sky,0,0
564,Porto Novo,BJ,2020-12-09 08:56:44,6.5,2.6,82.4,88,40,3.36,scattered clouds,0,0
565,Chumikan,RU,2020-12-09 08:56:45,54.72,135.31,7.14,90,100,16.64,overcast clouds,0,0
566,Chapeco,BR,2020-12-09 08:56:45,-27.1,-52.62,58.46,95,0,1.68,clear sky,0,0
567,Bonfim,BR,2020-12-09 08:56:45,3.08,-59.95,76.53,78,88,6.26,overcast clouds,0,0
568,Puerto El Triunfo,SV,2020-12-09 08:56:45,13.28,-88.55,77.0,50,0,18.34,clear sky,0,0
